[{"time":"10/05 10:27","latitude":"23.11","longitude":"121.35","amgnitude":"3.5","depth":" 18.7","location":"臺東縣政府北偏東方  44.5  公里 (位於臺東縣成功鎮)\n","url":"ECL1005102735.htm"},{"time":"10/04 14:17","latitude":"22.12","longitude":"120.47","amgnitude":"4.4","depth":" 37.3","location":"高雄市政府南偏東方  57.6  公里 (位於臺灣西南部海域)\n","url":"ECL1004141744.htm"},{"time":"10/03 17:30","latitude":"23.44","longitude":"120.49","amgnitude":"3.7","depth":" 11.6","location":"嘉義縣政府東方  20.1  公里 (位於嘉義縣中埔鄉)\n","url":"ECL1003173037.htm"},{"time":"10/01 14:12","latitude":"23.06","longitude":"121.32","amgnitude":"3.2","depth":" 33.3","location":"臺東縣政府北偏東方  38.1  公里 (位於臺東縣成功鎮)\n","url":"ECL1001141232.htm"},{"time":"10/01 14:03","latitude":"22.80","longitude":"121.12","amgnitude":"3.3","depth":"  9.3","location":"臺東縣政府西北方  6.0  公里 (位於臺東縣臺東市)\n","url":"ECL1001140333.htm"},{"time":"10/01 13:50","latitude":"22.80","longitude":"121.09","amgnitude":"3.7","depth":"  6.4","location":"臺東縣政府西北方  8.4  公里 (位於臺東縣卑南鄉)\n","url":"ECL1001135037.htm"},{"time":"09/30 16:27","latitude":"23.62","longitude":"121.60","amgnitude":"3.9","depth":" 32.3","location":"花蓮縣政府南方  40.7  公里 (位於花蓮縣近海)\n","url":"ECL0930162739.htm"},{"time":"09/29 19:52","latitude":"24.40","longitude":"121.90","amgnitude":"3.5","depth":" 14.8","location":"宜蘭縣政府南偏東方  39.1  公里 (位於臺灣東部海域)\n","url":"ECL0929195235.htm"},{"time":"09/29 15:08","latitude":"24.72","longitude":"121.02","amgnitude":"1.9","depth":"  7.9","location":"新竹縣政府南方  11.9  公里 (位於新竹縣寶山鄉)\n","url":"ECL0929150819.htm"},{"time":"09/25 20:27","latitude":"23.93","longitude":"121.47","amgnitude":"3.0","depth":" 21.1","location":"花蓮縣政府西偏南方  16.2  公里 (位於花蓮縣秀林鄉)\n","url":"ECL0925202730.htm"},{"time":"09/23 17:09","latitude":"23.18","longitude":"120.70","amgnitude":"3.7","depth":"  9.0","location":"高雄市政府東北方  74.0  公里 (位於高雄市那瑪夏區)\n","url":"ECL0923170937.htm"},{"time":"09/21 15:37","latitude":"24.42","longitude":"121.74","amgnitude":"3.2","depth":"  9.0","location":"宜蘭縣政府南方  34.0  公里 (位於宜蘭縣南澳鄉)\n","url":"ECL0921153732.htm"},{"time":"09/19 22:01","latitude":"23.95","longitude":"121.61","amgnitude":"3.5","depth":" 42.8","location":"花蓮縣政府南方  4.4  公里 (位於花蓮縣近海)\n","url":"ECL0919220135.htm"},{"time":"09/18 04:08","latitude":"24.01","longitude":"121.01","amgnitude":"4.3","depth":" 17.6","location":"南投縣政府東偏北方  35.0  公里 (位於南投縣埔里鎮)\n","url":"EC0918040843121.htm"},{"time":"09/17 01:17","latitude":"24.82","longitude":"121.40","amgnitude":"3.0","depth":" 10.2","location":"桃園市政府南偏東方  21.8  公里 (位於桃園市復興區)\n","url":"ECL0917011730.htm"}]